{"type": "FeatureCollection", "features": [{"type": "Feature", "geometry": {"type": "Point", "coordinates": [29.056749, 59.830437]}, "properties": {"name": "Ленинградская АЭС-2", "ref": "https://energybase.ru/power-plant/Leningrad_NPP-2"}}, {"type": "Feature", "geometry": {"type": "Point", "coordinates": [29.048611, 59.852778]}, "properties": {"name": "Ленинградская АЭС", "ref": "https://energybase.ru/power-plant/Leningrad_NPP"}}, {"type": "Feature", "geometry": {"type": "Point", "coordinates": [32.050278, 59.489167]}, "properties": {"name": "Киришская ГРЭС", "ref": "https://energybase.ru/power-plant/Kirishskaya_TPP"}}, {"type": "Feature", "geometry": {"type": "Point", "coordinates": [22.164717, 54.939204]}, "properties": {"name": "Балтийская АЭС", "ref": "https://energybase.ru/power-plant/Baltic_NPP"}}, {"type": "Feature", "geometry": {"type": "Point", "coordinates": [32.466667, 67.466667]}, "properties": {"name": "Кольская АЭС", "ref": "https://energybase.ru/power-plant/Kola_NPP"}}, {"type": "Feature", "geometry": {"type": "Point", "coordinates": [30.451183, 59.827586]}, "properties": {"name": "Южная ТЭЦ-22", "ref": "https://energybase.ru/power-plant/South_CHP-22"}}, {"type": "Feature", "geometry": {"type": "Point", "coordinates": [57.315639, 65.134444]}, "properties": {"name": "Печорская ГРЭС", "ref": "https://energybase.ru/power-plant/Pechorskaya_TPP"}}, {"type": "Feature", "geometry": {"type": "Point", "coordinates": [37.125, 59.228889]}, "properties": {"name": "Череповецкая ГРЭС", "ref": "https://energybase.ru/power-plant/Cherepovetskaya_TPP"}}, {"type": "Feature", "geometry": {"type": "Point", "coordinates": [20.581663, 54.661906]}, "properties": {"name": "Калининградская ТЭЦ-2", "ref": "https://energybase.ru/power-plant/Kaliningrad_CHP-2"}}, {"type": "Feature", "geometry": {"type": "Point", "coordinates": [30.097817, 60.015978]}, "properties": {"name": "Северо-Западная ТЭЦ", "ref": "https://energybase.ru/power-plant/North-West_CHP"}}, {"type": "Feature", "geometry": {"type": "Point", "coordinates": [30.50354, 59.874595]}, "properties": {"name": "Правобережная ТЭЦ-5", "ref": "https://energybase.ru/power-plant/Right_Bank_CHP-5"}}, {"type": "Feature", "geometry": {"type": "Point", "coordinates": [50.726259, 61.818272]}, "properties": {"name": "ТЭЦ Монди СЛПК", "ref": "https://energybase.ru/power-plant/chp-mondi"}}, {"type": "Feature", "geometry": {"type": "Point", "coordinates": [30.246667, 59.873056]}, "properties": {"name": "Первомайская ТЭЦ-14", "ref": "https://energybase.ru/power-plant/Pervomayskaya_CHP-14"}}, {"type": "Feature", "geometry": {"type": "Point", "coordinates": [30.474444, 60.075833]}, "properties": {"name": "Северная ТЭЦ-21", "ref": "https://energybase.ru/power-plant/North_CHP-21"}}, {"type": "Feature", "geometry": {"type": "Point", "coordinates": [40.573056, 64.575278]}, "properties": {"name": "Архангельская ТЭЦ", "ref": "https://energybase.ru/power-plant/Arkhangelsk_CHP"}}, {"type": "Feature", "geometry": {"type": "Point", "coordinates": [29.969444, 57.509722]}, "properties": {"name": "Псковская ГРЭС", "ref": "https://energybase.ru/power-plant/Pskovskaya_TPP"}}, {"type": "Feature", "geometry": {"type": "Point", "coordinates": [20.590868, 54.659063]}, "properties": {"name": "Прегольская ТЭС", "ref": "https://energybase.ru/power-plant/pregolskaya-tpp"}}, {"type": "Feature", "geometry": {"type": "Point", "coordinates": [39.907972, 64.563444]}, "properties": {"name": "Северодвинская ТЭЦ-2", "ref": "https://energybase.ru/power-plant/Severodvinsk_CHP-2"}}, {"type": "Feature", "geometry": {"type": "Point", "coordinates": [53.986462, 63.57621]}, "properties": {"name": "Сосногорская ТЭЦ", "ref": "https://energybase.ru/power-plant/Sosnogorskaya_TPS"}}, {"type": "Feature", "geometry": {"type": "Point", "coordinates": [30.286883, 59.870086]}, "properties": {"name": "Автовская ТЭЦ-15", "ref": "https://energybase.ru/power-plant/Avtovskaya_CHP-15"}}, {"type": "Feature", "geometry": {"type": "Point", "coordinates": [47.120748, 61.30318]}, "properties": {"name": "ТЭЦ-1 Котласского ЦБК", "ref": "https://energybase.ru/power-plant/chp-kotlas-ppm-1"}}, {"type": "Feature", "geometry": {"type": "Point", "coordinates": [37.848415, 59.137248]}, "properties": {"name": "ТЭЦ-ПВС", "ref": "https://energybase.ru/power-plant/severstal-chp-pvs"}}, {"type": "Feature", "geometry": {"type": "Point", "coordinates": [34.275556, 61.803611]}, "properties": {"name": "Петрозаводская ТЭЦ", "ref": "https://energybase.ru/power-plant/Petrozavodsk_CHP"}}, {"type": "Feature", "geometry": {"type": "Point", "coordinates": [64.081389, 67.610556]}, "properties": {"name": "Воркутинская ТЭЦ-2", "ref": "https://energybase.ru/power-plant/Vorkuta_CHP-2"}}, {"type": "Feature", "geometry": {"type": "Point", "coordinates": [31.747778, 68.606667]}, "properties": {"name": "Верхнетуломская ГЭС", "ref": "https://energybase.ru/power-plant/Verhnetulomskaya_HPP"}}, {"type": "Feature", "geometry": {"type": "Point", "coordinates": [33.422778, 67.598056]}, "properties": {"name": "Апатитская ТЭЦ", "ref": "https://energybase.ru/power-plant/Apatity_CHP"}}, {"type": "Feature", "geometry": {"type": "Point", "coordinates": [30.376667, 59.969444]}, "properties": {"name": "Выборгская ТЭЦ-17", "ref": "https://energybase.ru/power-plant/Vyborg_CHP-17"}}, {"type": "Feature", "geometry": {"type": "Point", "coordinates": [40.831976, 64.430415]}, "properties": {"name": "ТЭЦ Архангельского ЦБК", "ref": "https://energybase.ru/power-plant/chp-appm"}}, {"type": "Feature", "geometry": {"type": "Point", "coordinates": [33.485647, 59.604803]}, "properties": {"name": "Тихвинская ТЭЦ", "ref": "https://energybase.ru/power-plant/tikhvinskaya-chp"}}, {"type": "Feature", "geometry": {"type": "Point", "coordinates": [35.568323, 68.842554]}, "properties": {"name": "Серебрянская ГЭС-1", "ref": "https://energybase.ru/power-plant/Serebryanska_HPP-1"}}, {"type": "Feature", "geometry": {"type": "Point", "coordinates": [30.182147, 59.871063]}, "properties": {"name": "Юго-Западная ТЭЦ", "ref": "https://energybase.ru/power-plant/uztec"}}, {"type": "Feature", "geometry": {"type": "Point", "coordinates": [31.221944, 58.623611]}, "properties": {"name": "Новгородская ТЭЦ", "ref": "https://energybase.ru/power-plant/Novgorod_CHP"}}, {"type": "Feature", "geometry": {"type": "Point", "coordinates": [39.857712, 64.581009]}, "properties": {"name": "Северодвинская ТЭЦ-1", "ref": "https://energybase.ru/power-plant/Severodvinsk_CHP-1"}}, {"type": "Feature", "geometry": {"type": "Point", "coordinates": [33.667528, 65.033417]}, "properties": {"name": "Кривопорожская ГЭС", "ref": "https://energybase.ru/power-plant/Krivoporozhskaya_HPP"}}, {"type": "Feature", "geometry": {"type": "Point", "coordinates": [37.829104, 59.12756]}, "properties": {"name": "ТЭЦ ЭВС-2", "ref": "https://energybase.ru/power-plant/severstal-chp-evs2"}}, {"type": "Feature", "geometry": {"type": "Point", "coordinates": [21.801252, 55.094406]}, "properties": {"name": "Талаховская ТЭС", "ref": "https://energybase.ru/power-plant/talakhovskaya-tpp"}}, {"type": "Feature", "geometry": {"type": "Point", "coordinates": [34.190483, 60.920422]}, "properties": {"name": "Верхне-Свирская ГЭС", "ref": "https://energybase.ru/power-plant/Upper-Svir-hydroelectric-HPP"}}, {"type": "Feature", "geometry": {"type": "Point", "coordinates": [22.182512, 54.570868]}, "properties": {"name": "Маяковская ТЭС", "ref": "https://energybase.ru/power-plant/mayakovskaya-tpp"}}, {"type": "Feature", "geometry": {"type": "Point", "coordinates": [32.438333, 67.220278]}, "properties": {"name": "Нива ГЭС-3", "ref": "https://energybase.ru/power-plant/Niva_HPP-3"}}, {"type": "Feature", "geometry": {"type": "Point", "coordinates": [30.3875, 59.934167]}, "properties": {"name": "Центральная ТЭЦ (ЭС-2)", "ref": "https://energybase.ru/power-plant/central-chp-2"}}, {"type": "Feature", "geometry": {"type": "Point", "coordinates": [30.334421, 59.906893]}, "properties": {"name": "Центральная ТЭЦ (ЭС-1)", "ref": "https://energybase.ru/power-plant/central-chp-1"}}, {"type": "Feature", "geometry": {"type": "Point", "coordinates": [30.324031, 59.922809]}, "properties": {"name": "Центральная ТЭЦ (ЭС-3)", "ref": "https://energybase.ru/power-plant/central-chp-3"}}, {"type": "Feature", "geometry": {"type": "Point", "coordinates": [32.376028, 66.863806]}, "properties": {"name": "Княжегубская ГЭС", "ref": "https://energybase.ru/power-plant/Knyazhegubskaya_HPP"}}, {"type": "Feature", "geometry": {"type": "Point", "coordinates": [35.697778, 68.986944]}, "properties": {"name": "Серебрянская ГЭС-2", "ref": "https://energybase.ru/power-plant/Serebryanska_HPP-2"}}, {"type": "Feature", "geometry": {"type": "Point", "coordinates": [20.284882, 54.690602]}, "properties": {"name": "Приморская ТЭС", "ref": "https://energybase.ru/power-plant/primorskaya-coal-tpp-svetliy"}}, {"type": "Feature", "geometry": {"type": "Point", "coordinates": [39.938889, 59.195]}, "properties": {"name": "Вологодская ТЭЦ", "ref": "https://energybase.ru/power-plant/Vologda_CHP"}}, {"type": "Feature", "geometry": {"type": "Point", "coordinates": [30.246944, 59.925278]}, "properties": {"name": "Василеостровская ТЭЦ-7", "ref": "https://energybase.ru/power-plant/Vasilyeostrovskaya_CHP-7"}}, {"type": "Feature", "geometry": {"type": "Point", "coordinates": [35.041816, 69.091231]}, "properties": {"name": "Верхнетериберская ГЭС", "ref": "https://energybase.ru/power-plant/Verhneteriberskaya_HPP"}}, {"type": "Feature", "geometry": {"type": "Point", "coordinates": [28.210556, 59.367778]}, "properties": {"name": "Нарвская ГЭС", "ref": "https://energybase.ru/power-plant/Narva_HPP"}}, {"type": "Feature", "geometry": {"type": "Point", "coordinates": [28.8394, 61.1044]}, "properties": {"name": "Светогорская ГЭС", "ref": "https://energybase.ru/power-plant/Svetogorskaya_HPP"}}, {"type": "Feature", "geometry": {"type": "Point", "coordinates": [28.8734, 61.0585]}, "properties": {"name": "Лесогорская ГЭС", "ref": "https://energybase.ru/power-plant/Lesogorskaya_HPP"}}, {"type": "Feature", "geometry": {"type": "Point", "coordinates": [30.589671, 59.758319]}, "properties": {"name": "ТЭЦ ПГУ ГСР Энерго", "ref": "https://energybase.ru/power-plant/ccpp-chp-gsr-energo"}}, {"type": "Feature", "geometry": {"type": "Point", "coordinates": [37.699864, 59.178061]}, "properties": {"name": "ТЭЦ АО \"ФосАгро-Череповец\"", "ref": "https://energybase.ru/power-plant/cherepovets-phosagro-chp"}}, {"type": "Feature", "geometry": {"type": "Point", "coordinates": [57.331638, 66.179826]}, "properties": {"name": "ГТУ-ТЭЦ Усинского месторождения", "ref": "https://energybase.ru/power-plant/gtpp-usinskoe-oilfield"}}, {"type": "Feature", "geometry": {"type": "Point", "coordinates": [34.972229, 69.018464]}, "properties": {"name": "Кольская ВЭС (Ветряная электростанция ООО \"Энел Рус Винд Кола\")", "ref": "https://energybase.ru/power-plant/wind-power-plant-kolskaya"}}, {"type": "Feature", "geometry": {"type": "Point", "coordinates": [33.704444, 60.806389]}, "properties": {"name": "Нижне-Свирская ГЭС", "ref": "https://energybase.ru/power-plant/Lower-Svirsky_HPP"}}, {"type": "Feature", "geometry": {"type": "Point", "coordinates": [31.389444, 66.669167]}, "properties": {"name": "Иовская ГЭС", "ref": "https://energybase.ru/power-plant/Iovskaya_HPP"}}, {"type": "Feature", "geometry": {"type": "Point", "coordinates": [30.978889, 59.868611]}, "properties": {"name": "Дубровская ТЭЦ-8", "ref": "https://energybase.ru/power-plant/Dubrovskaja_CHP-8"}}, {"type": "Feature", "geometry": {"type": "Point", "coordinates": [32.343333, 59.911667]}, "properties": {"name": "Волховская ГЭС", "ref": "https://energybase.ru/power-plant/Volkhov_HPP"}}, {"type": "Feature", "geometry": {"type": "Point", "coordinates": [34.540672, 64.940743]}, "properties": {"name": "Путкинская ГЭС", "ref": "https://energybase.ru/power-plant/Putkinskaya_HPP"}}, {"type": "Feature", "geometry": {"type": "Point", "coordinates": [31.091389, 66.360833]}, "properties": {"name": "Кумская ГЭС", "ref": "https://energybase.ru/power-plant/Kuma_HPP"}}, {"type": "Feature", "geometry": {"type": "Point", "coordinates": [53.633795, 63.358596]}, "properties": {"name": "Энергоцентр Ярегского месторождения", "ref": "https://energybase.ru/power-plant/yaregskoe-oilfield-pp"}}, {"type": "Feature", "geometry": {"type": "Point", "coordinates": [46.484764, 60.957507]}, "properties": {"name": "Красавинская ГТ ТЭЦ", "ref": "https://energybase.ru/power-plant/krasavinskaya-ggpp"}}, {"type": "Feature", "geometry": {"type": "Point", "coordinates": [32.459806, 67.281611]}, "properties": {"name": "Нива ГЭС-2", "ref": "https://energybase.ru/power-plant/Niva_HPP-2"}}, {"type": "Feature", "geometry": {"type": "Point", "coordinates": [30.1375, 69.643333]}, "properties": {"name": "Борисоглебская ГЭС", "ref": "https://energybase.ru/power-plant/Borisoglebskaya_HPP"}}, {"type": "Feature", "geometry": {"type": "Point", "coordinates": [32.819167, 68.821667]}, "properties": {"name": "Нижнетуломская ГЭС", "ref": "https://energybase.ru/power-plant/Nizhnetulomskaya_HPP"}}, {"type": "Feature", "geometry": {"type": "Point", "coordinates": [34.261667, 64.911667]}, "properties": {"name": "Подужемская ГЭС", "ref": "https://energybase.ru/power-plant/Poduzhemskaya_HPP"}}, {"type": "Feature", "geometry": {"type": "Point", "coordinates": [29.241944, 69.1175]}, "properties": {"name": "Хеваскоски ГЭС", "ref": "https://energybase.ru/power-plant/Hevaskoski_HPP"}}, {"type": "Feature", "geometry": {"type": "Point", "coordinates": [29.005556, 69.022778]}, "properties": {"name": "Раякоски ГЭС", "ref": "https://energybase.ru/power-plant/Rajakoski_HPP"}}, {"type": "Feature", "geometry": {"type": "Point", "coordinates": [53.037883, 67.641342]}, "properties": {"name": "Нарьян-Марская электростанция", "ref": "https://energybase.ru/power-plant/naryan-mar-power-plant"}}, {"type": "Feature", "geometry": {"type": "Point", "coordinates": [31.278935, 58.577511]}, "properties": {"name": "ГТ ТЭЦ Лужская", "ref": "https://energybase.ru/power-plant/gtpp-luzhskaya"}}, {"type": "Feature", "geometry": {"type": "Point", "coordinates": [40.562317, 64.593139]}, "properties": {"name": "ТЭЦ-1 Соломбальского ЦБК", "ref": "https://energybase.ru/power-plant/chp-2-ppm-solombalsky"}}, {"type": "Feature", "geometry": {"type": "Point", "coordinates": [28.780278, 68.971667]}, "properties": {"name": "Янискоски ГЭС", "ref": "https://energybase.ru/power-plant/Yaniskoski_HPP"}}, {"type": "Feature", "geometry": {"type": "Point", "coordinates": [35.146944, 69.125278]}, "properties": {"name": "Нижнетериберская ГЭС", "ref": "https://energybase.ru/power-plant/Nizhneteriberskaya_HPP"}}, {"type": "Feature", "geometry": {"type": "Point", "coordinates": [32.527306, 67.381222]}, "properties": {"name": "Нива ГЭС-1", "ref": "https://energybase.ru/power-plant/Niva_HPP-1"}}, {"type": "Feature", "geometry": {"type": "Point", "coordinates": [34.26175, 62.194833]}, "properties": {"name": "Кондопожская ГЭС", "ref": "https://energybase.ru/power-plant/Kondopozhskaya_HPP"}}, {"type": "Feature", "geometry": {"type": "Point", "coordinates": [64.018056, 67.5]}, "properties": {"name": "Воркутинская ТЭЦ-1", "ref": "https://energybase.ru/power-plant/Vorkuta_CHP-1"}}, {"type": "Feature", "geometry": {"type": "Point", "coordinates": [33.673694, 62.484083]}, "properties": {"name": "Пальеозерская ГЭС", "ref": "https://energybase.ru/power-plant/Palieozersky_HPP"}}, {"type": "Feature", "geometry": {"type": "Point", "coordinates": [33.005676, 65.050778]}, "properties": {"name": "Белопорожская ГЭС-2", "ref": "https://energybase.ru/power-plant/byeloporozhskaya-hpp-2"}}, {"type": "Feature", "geometry": {"type": "Point", "coordinates": [33.008938, 65.050995]}, "properties": {"name": "Белопорожская ГЭС-1", "ref": "https://energybase.ru/power-plant/byeloporozhskaya-hpp-1"}}, {"type": "Feature", "geometry": {"type": "Point", "coordinates": [30.575166, 59.761431]}, "properties": {"name": "ГСР ТЭЦ", "ref": "https://energybase.ru/power-plant/gsr-chp"}}, {"type": "Feature", "geometry": {"type": "Point", "coordinates": [20.124123, 54.664421]}, "properties": {"name": "Светловская ГРЭС-2", "ref": "https://energybase.ru/power-plant/Svetlovskaya_TPP-2"}}, {"type": "Feature", "geometry": {"type": "Point", "coordinates": [32.008333, 64.83]}, "properties": {"name": "Юшкозерская ГЭС", "ref": "https://energybase.ru/power-plant/Yushkozerskaya_HPP"}}, {"type": "Feature", "geometry": {"type": "Point", "coordinates": [32.831644, 67.916591]}, "properties": {"name": "ТЭЦ ЦЭО АО \"Кольская ГМК\" (Мончегорская ТЭЦ)", "ref": "https://energybase.ru/power-plant/monchegorskaya-chp"}}, {"type": "Feature", "geometry": {"type": "Point", "coordinates": [30.614331, 60.025385]}, "properties": {"name": "ГТ ТЭЦ Всеволожская", "ref": "https://energybase.ru/power-plant/gtpp-vsevolozhskaya"}}, {"type": "Feature", "geometry": {"type": "Point", "coordinates": [60.157249, 66.041564]}, "properties": {"name": "Интинская ТЭЦ", "ref": "https://energybase.ru/power-plant/Inta_CHP"}}, {"type": "Feature", "geometry": {"type": "Point", "coordinates": [42.114708, 61.062901]}, "properties": {"name": "ГТ ТЭЦ Вельская", "ref": "https://energybase.ru/power-plant/gtpp-velskaya"}}, {"type": "Feature", "geometry": {"type": "Point", "coordinates": [22.181842, 54.591163]}, "properties": {"name": "Гусевская ТЭЦ", "ref": "https://energybase.ru/power-plant/Gusevskaya_CHP"}}, {"type": "Feature", "geometry": {"type": "Point", "coordinates": [33.059167, 68.958056]}, "properties": {"name": "Мурманская ТЭЦ", "ref": "https://energybase.ru/power-plant/Murmanskaya_CHP"}}, {"type": "Feature", "geometry": {"type": "Point", "coordinates": [28.600556, 68.938611]}, "properties": {"name": "Кайтакоски ГЭС", "ref": "https://energybase.ru/power-plant/Kaitakoski_HPP"}}, {"type": "Feature", "geometry": {"type": "Point", "coordinates": [20.350113, 54.933861]}, "properties": {"name": "Ушаковская ВЭС (ВЭС Зеленоградская)", "ref": "https://energybase.ru/power-plant/wpp-zelenogradskaya"}}, {"type": "Feature", "geometry": {"type": "Point", "coordinates": [31.002452, 61.761729]}, "properties": {"name": "МГЭС Ляскеля", "ref": "https://energybase.ru/power-plant/shpp-lyaskelya"}}, {"type": "Feature", "geometry": {"type": "Point", "coordinates": [30.948333, 61.395]}, "properties": {"name": "ДЭС о.Валаам", "ref": "https://energybase.ru/power-plant/DES_island_Valaam"}}, {"type": "Feature", "geometry": {"type": "Point", "coordinates": [20.483889, 54.709722]}, "properties": {"name": "Калининградская ТЭЦ-1", "ref": "https://energybase.ru/power-plant/Kaliningrad_CHP-1"}}, {"type": "Feature", "geometry": {"type": "Point", "coordinates": [20.50442, 54.685681]}, "properties": {"name": "Районная тепловая станция (РТС) Южная", "ref": "https://energybase.ru/power-plant/rts-south"}}, {"type": "Feature", "geometry": {"type": "Point", "coordinates": [30.504, 59.8737]}, "properties": {"name": "ТЭЦ-5 Красный Октябрь", "ref": "https://energybase.ru/power-plant/TEP-5_Krasnyj_Oktyabr"}}, {"type": "Feature", "geometry": {"type": "Point", "coordinates": [47.1121, 61.306801]}, "properties": {"name": "ТЭЦ-3 Котласского ЦБК", "ref": "https://energybase.ru/power-plant/chp-kotlas-ppm-3"}}, {"type": "Feature", "geometry": {"type": "Point", "coordinates": [40.556824, 64.592255]}, "properties": {"name": "ТЭЦ-2 Соломбальского ЦБК", "ref": "https://energybase.ru/power-plant/chp-1-ppm-solombalsky"}}, {"type": "Feature", "geometry": {"type": "Point", "coordinates": [34.17822, 63.917407]}, "properties": {"name": "Ондская ГЭС", "ref": "https://energybase.ru/power-plant/ondskaya-hpp"}}, {"type": "Feature", "geometry": {"type": "Point", "coordinates": [21.013343, 54.43437]}, "properties": {"name": "Правдинская ГЭС-3", "ref": "https://energybase.ru/power-plant/pravdinskaya-hpp-3"}}, {"type": "Feature", "geometry": {"type": "Point", "coordinates": [21.124649, 54.473152]}, "properties": {"name": "Правдинская ГЭС-4", "ref": "https://energybase.ru/power-plant/pravdinskaya-hpp-4"}}, {"type": "Feature", "geometry": {"type": "Point", "coordinates": [34.32233, 63.735561]}, "properties": {"name": "ТЭЦ-11 Сегежского ЦБК", "ref": "https://energybase.ru/power-plant/chp-11-oao-segezhskiy-tcbk"}}, {"type": "Feature", "geometry": {"type": "Point", "coordinates": [53.601485, 63.348349]}, "properties": {"name": "Парогенераторная установка Лыаель", "ref": "https://energybase.ru/power-plant/ccpp-lyayel"}}, {"type": "Feature", "geometry": {"type": "Point", "coordinates": [29.911652, 59.996239]}, "properties": {"name": "Ветропарк Дамба", "ref": "https://energybase.ru/power-plant/vetropark-wpp-damba"}}, {"type": "Feature", "geometry": {"type": "Point", "coordinates": [55.373776, 68.164629]}, "properties": {"name": "Энергоцентр ЦПС «Южное Хыльчую»", "ref": "https://energybase.ru/power-plant/energy-center-yuzhnoye-khylchuyu"}}, {"type": "Feature", "geometry": {"type": "Point", "coordinates": [29.474258, 59.916656]}, "properties": {"name": "Ленинградская ВЭС", "ref": "https://energybase.ru/power-plant/leningradskaya-wpp"}}, {"type": "Feature", "geometry": {"type": "Point", "coordinates": [44.232245, 65.863926]}, "properties": {"name": "Мезенская ДЭС", "ref": "https://energybase.ru/power-plant/mezenskaya-diesel-pp"}}]}